{"routes": {"11": {"stop_ids": ["DALY", "BALB", "GLEN", "24TH", "16TH", "CIVC", "POWL", "MONT", "EMBR", "WOAK", "LAKE", "FTVL", "COLS", "SANL", "BAYF", "CAST", "WDUB", "DUBL"], "name": "Dublin/Pleasanton - Daly City"}, "03": {"stop_ids": ["FRMT", "UCTY", "SHAY", "HAYW", "BAYF", "SANL", "COLS", "FTVL", "LAKE", "12TH", "19TH_N", "MCAR", "ASHB", "DBRK", "NBRK", "PLZA", "DELN", "RICH"], "name": "Fremont - Richmond"}, "01": {"stop_ids": ["MLBR", "SFIA", "SBRN", "SSAN", "COLM", "DALY", "BALB", "GLEN", "24TH", "16TH", "CIVC", "POWL", "MONT", "EMBR", "WOAK", "12TH", "19TH_N", "MCAR", "ROCK", "ORIN", "LAFY", "WCRK", "PHIL", "CONC", "NCON", "PITT"], "name": "Pittsburg/Bay Point - SFIA/Millbrae"}, "07": {"stop_ids": ["MLBR", "SBRN", "SSAN", "COLM", "DALY", "BALB", "GLEN", "24TH", "16TH", "CIVC", "POWL", "MONT", "EMBR", "WOAK", "12TH", "19TH_N", "MCAR", "ASHB", "DBRK", "NBRK", "PLZA", "DELN", "RICH"], "name": "Richmond - Daly City/Millbrae"}, "05": {"stop_ids": ["FRMT", "UCTY", "SHAY", "HAYW", "BAYF", "SANL", "COLS", "FTVL", "LAKE", "WOAK", "EMBR", "MONT", "POWL", "CIVC", "16TH", "24TH", "GLEN", "BALB", "DALY"], "name": "Fremont - Daly City"}, "AirBART": {"stop_ids": ["COLS", "OAK"], "name": "SHUTTLE"}}, "agency_name": "BART", "stops": {"PHIL": {"lat": 37.928403, "lon": -122.056013, "name": "Pleasant Hill/Contra Costa Centre", "fips_info": {"1990": {"state_fips": "06", "county_fips": "013", "tract_fips": "324000"}, "2000": {"state_fips": "06", "county_fips": "013", "tract_fips": "324000"}, "2010": {"state_fips": "06", "county_fips": "013", "tract_fips": "324001"}}, "median_income": {"1990": 59890.61454032258, "2000": 68519.5613085234, "2010": 60731.025664570676}}, "FTVL": {"lat": 37.774963, "lon": -122.224274, "name": "Fruitvale", "fips_info": {"1990": {"state_fips": "06", "county_fips": "001", "tract_fips": "406100"}, "2000": {"state_fips": "06", "county_fips": "001", "tract_fips": "406100"}, "2010": {"state_fips": "06", "county_fips": "001", "tract_fips": "406100"}}, "median_income": {"1990": 49112.59591935484, "2000": 48049.828277310924, "2010": 54364.63249695856}}, "CIVC": {"lat": 37.779528, "lon": -122.413756, "name": "Civic Center/UN Plaza", "fips_info": {"1990": {"state_fips": "06", "county_fips": "075", "tract_fips": "012400"}, "2000": {"state_fips": "06", "county_fips": "075", "tract_fips": "017601"}, "2010": {"state_fips": "06", "county_fips": "075", "tract_fips": "017601"}}, "median_income": {"1990": 23960.75466129032, "2000": 33418.003259303725, "2010": 25082.264332026643}}, "OAK": {"lat": 37.712811, "lon": -122.213165, "name": "Oakland Airport Terminals AirBART", "fips_info": {"1990": {"state_fips": "06", "county_fips": "001", "tract_fips": "409000"}, "2000": {"state_fips": "06", "county_fips": "001", "tract_fips": "409000"}, "2010": {"state_fips": "06", "county_fips": "001", "tract_fips": "409000"}}, "median_income": {"1990": 33872.69927419355, "2000": 41814.80268907563, "2010": 40747.956678801325}}, "COLS": {"lat": 37.754006, "lon": -122.197273, "name": "Coliseum/Oakland Airport", "fips_info": {"1990": {"state_fips": "06", "county_fips": "001", "tract_fips": "408800"}, "2000": {"state_fips": "06", "county_fips": "001", "tract_fips": "408800"}, "2010": {"state_fips": "06", "county_fips": "001", "tract_fips": "408800"}}, "median_income": {"1990": 23926.938322580645, "2000": 36220.199105642256, "2010": 23798.77862093718}}, "PLZA": {"lat": 37.9030588, "lon": -122.2992715, "name": "El Cerrito Plaza", "fips_info": {"1990": {"state_fips": "06", "county_fips": "013", "tract_fips": "389100"}, "2000": {"state_fips": "06", "county_fips": "013", "tract_fips": "389100"}, "2010": {"state_fips": "06", "county_fips": "013", "tract_fips": "389100"}}, "median_income": {"1990": 58923.09151612903, "2000": 64005.84464585834, "2010": 69223.53137221085}}, "WOAK": {"lat": 37.80467476, "lon": -122.2945822, "name": "West Oakland", "fips_info": {"1990": {"state_fips": "06", "county_fips": "001", "tract_fips": "401900"}, "2000": {"state_fips": "06", "county_fips": "001", "tract_fips": "401900"}, "2010": {"state_fips": "06", "county_fips": "001", "tract_fips": "402200"}}, "median_income": {"1990": 39373.49037096774, "2000": 70205.91270108044, "2010": 30696.156993898487}}, "CONC": {"lat": 37.973737, "lon": -122.029095, "name": "Concord", "fips_info": {"1990": {"state_fips": "06", "county_fips": "013", "tract_fips": "335000"}, "2000": {"state_fips": "06", "county_fips": "013", "tract_fips": "335000"}, "2010": {"state_fips": "06", "county_fips": "013", "tract_fips": "335000"}}, "median_income": {"1990": 74172.38158870967, "2000": 89840.85984393758, "2010": 81344.97891272833}}, "NCON": {"lat": 38.003275, "lon": -122.024597, "name": "North Concord/Martinez", "fips_info": {"1990": {"state_fips": "06", "county_fips": "013", "tract_fips": "329000"}, "2000": {"state_fips": "06", "county_fips": "013", "tract_fips": "330000"}, "2010": {"state_fips": "06", "county_fips": "013", "tract_fips": "330000"}}, "median_income": {"1990": 82252.6078548387, "2000": 82420.07473589436, "2010": 84587.35482923691}}, "SFIA": {"lat": 37.6159, "lon": -122.392534, "name": "San Francisco Int'l Airport", "fips_info": {"1990": {"state_fips": "06", "county_fips": "081", "tract_fips": "604300"}, "2000": {"state_fips": "06", "county_fips": "081", "tract_fips": "604300"}, "2010": {"state_fips": "06", "county_fips": "081", "tract_fips": "984300"}}, "median_income": {"1990": 0.0, "2000": 0.0, "2010": 0.0}}, "WDUB": {"lat": 37.699759, "lon": -121.928099, "name": "West Dublin/Pleasanton", "fips_info": {"1990": {"state_fips": "06", "county_fips": "001", "tract_fips": "450602"}, "2000": {"state_fips": "06", "county_fips": "001", "tract_fips": "450602"}, "2010": {"state_fips": "06", "county_fips": "001", "tract_fips": "450602"}}, "median_income": {"1990": 119493.7902016129, "2000": 139252.633607443, "2010": 138797.79530337424}}, "DALY": {"lat": 37.70612055, "lon": -122.4690807, "name": "Daly City", "fips_info": {"1990": {"state_fips": "06", "county_fips": "081", "tract_fips": "600900"}, "2000": {"state_fips": "06", "county_fips": "081", "tract_fips": "600700"}, "2010": {"state_fips": "06", "county_fips": "081", "tract_fips": "600700"}}, "median_income": {"1990": 90960.31507258065, "2000": 79205.38, "2010": 88708.19093210029}}, "EMBR": {"lat": 37.792976, "lon": -122.396742, "name": "Embarcadero", "fips_info": {"1990": {"state_fips": "06", "county_fips": "075", "tract_fips": "011700"}, "2000": {"state_fips": "06", "county_fips": "075", "tract_fips": "017602"}, "2010": {"state_fips": "06", "county_fips": "075", "tract_fips": "061500"}}, "median_income": {"1990": 25080.45120967742, "2000": 79482.24366146458, "2010": 121972.40520749334}}, "SBRN": {"lat": 37.637753, "lon": -122.416038, "name": "San Bruno", "fips_info": {"1990": {"state_fips": "06", "county_fips": "081", "tract_fips": "604102"}, "2000": {"state_fips": "06", "county_fips": "081", "tract_fips": "604102"}, "2010": {"state_fips": "06", "county_fips": "081", "tract_fips": "604102"}}, "median_income": {"1990": 64805.25576612903, "2000": 66051.55947779112, "2010": 60987.28846306231}}, "HAYW": {"lat": 37.670399, "lon": -122.087967, "name": "Hayward", "fips_info": {"1990": {"state_fips": "06", "county_fips": "001", "tract_fips": "436300"}, "2000": {"state_fips": "06", "county_fips": "001", "tract_fips": "435400"}, "2010": {"state_fips": "06", "county_fips": "001", "tract_fips": "435400"}}, "median_income": {"1990": 54124.92879032258, "2000": 53255.704093637454, "2010": 47444.451078368766}}, "LAFY": {"lat": 37.893394, "lon": -122.123801, "name": "Lafayette", "fips_info": {"1990": {"state_fips": "06", "county_fips": "013", "tract_fips": "348000"}, "2000": {"state_fips": "06", "county_fips": "013", "tract_fips": "348000"}, "2010": {"state_fips": "06", "county_fips": "013", "tract_fips": "348000"}}, "median_income": {"1990": 161095.4015564516, "2000": 182355.27181272508, "2010": 166666.3746393396}}, "DBRK": {"lat": 37.869867, "lon": -122.268045, "name": "Downtown Berkeley", "fips_info": {"1990": {"state_fips": "06", "county_fips": "001", "tract_fips": "422900"}, "2000": {"state_fips": "06", "county_fips": "001", "tract_fips": "422900"}, "2010": {"state_fips": "06", "county_fips": "001", "tract_fips": "422900"}}, "median_income": {"1990": 29946.246612903225, "2000": 24130.485888355342, "2010": 26346.204575434538}}, "12TH": {"lat": 37.803664, "lon": -122.271604, "name": "12th St. Oakland City Center", "fips_info": {"1990": {"state_fips": "06", "county_fips": "001", "tract_fips": "403100"}, "2000": {"state_fips": "06", "county_fips": "001", "tract_fips": "403000"}, "2010": {"state_fips": "06", "county_fips": "001", "tract_fips": "403000"}}, "median_income": {"1990": 14326.8555, "2000": 18327.535408163265, "2010": 18838.573267082134}}, "SHAY": {"lat": 37.63479954, "lon": -122.0575506, "name": "South Hayward", "fips_info": {"1990": {"state_fips": "06", "county_fips": "001", "tract_fips": "438202"}, "2000": {"state_fips": "06", "county_fips": "001", "tract_fips": "435101"}, "2010": {"state_fips": "06", "county_fips": "001", "tract_fips": "435104"}}, "median_income": {"1990": 68177.49620967741, "2000": 97590.24576230493, "2010": 58552.79187739178}}, "PITT": {"lat": 38.018914, "lon": -121.945154, "name": "Pittsburg/Bay Point", "fips_info": {"1990": {"state_fips": "06", "county_fips": "013", "tract_fips": "355200"}, "2000": {"state_fips": "06", "county_fips": "013", "tract_fips": "355200"}, "2010": {"state_fips": "06", "county_fips": "013", "tract_fips": "355200"}}, "median_income": {"1990": 55592.1821532258, "2000": 105045.98840336135, "2010": 85017.35511823135}}, "CAST": {"lat": 37.690754, "lon": -122.075567, "name": "Castro Valley", "fips_info": {"1990": {"state_fips": "06", "county_fips": "001", "tract_fips": "431200"}, "2000": {"state_fips": "06", "county_fips": "001", "tract_fips": "431200"}, "2010": {"state_fips": "06", "county_fips": "001", "tract_fips": "431200"}}, "median_income": {"1990": 68742.98054032258, "2000": 72405.4406782713, "2010": 60585.52051627458}}, "MONT": {"lat": 37.789256, "lon": -122.401407, "name": "Montgomery St.", "fips_info": {"1990": {"state_fips": "06", "county_fips": "075", "tract_fips": "011700"}, "2000": {"state_fips": "06", "county_fips": "075", "tract_fips": "017602"}, "2010": {"state_fips": "06", "county_fips": "075", "tract_fips": "061500"}}, "median_income": {"1990": 25080.45120967742, "2000": 79482.24366146458, "2010": 121972.40520749334}}, "POWL": {"lat": 37.784991, "lon": -122.406857, "name": "Powell St.", "fips_info": {"1990": {"state_fips": "06", "county_fips": "075", "tract_fips": "012500"}, "2000": {"state_fips": "06", "county_fips": "075", "tract_fips": "017601"}, "2010": {"state_fips": "06", "county_fips": "075", "tract_fips": "017601"}}, "median_income": {"1990": 14554.176443548387, "2000": 33418.003259303725, "2010": 25082.264332026643}}, "ROCK": {"lat": 37.844601, "lon": -122.251793, "name": "Rockridge", "fips_info": {"1990": {"state_fips": "06", "county_fips": "001", "tract_fips": "400300"}, "2000": {"state_fips": "06", "county_fips": "001", "tract_fips": "400300"}, "2010": {"state_fips": "06", "county_fips": "001", "tract_fips": "400300"}}, "median_income": {"1990": 61292.11391129032, "2000": 82028.55036614646, "2010": 56805.64423852295}}, "SANL": {"lat": 37.72261921, "lon": -122.1613112, "name": "San Leandro", "fips_info": {"1990": {"state_fips": "06", "county_fips": "001", "tract_fips": "432600"}, "2000": {"state_fips": "06", "county_fips": "001", "tract_fips": "432600"}, "2010": {"state_fips": "06", "county_fips": "001", "tract_fips": "432600"}}, "median_income": {"1990": 56576.61334677419, "2000": 56846.541884753904, "2010": 49737.785953005776}}, "16TH": {"lat": 37.765062, "lon": -122.419694, "name": "16th St. Mission", "fips_info": {"1990": {"state_fips": "06", "county_fips": "075", "tract_fips": "020198"}, "2000": {"state_fips": "06", "county_fips": "075", "tract_fips": "020100"}, "2010": {"state_fips": "06", "county_fips": "075", "tract_fips": "020100"}}, "median_income": {"1990": 31394.71312096774, "2000": 36674.64703481393, "2010": 41891.3665381729}}, "19TH_N": {"lat": 37.80787, "lon": -122.269029, "name": "19th St. Oakland", "fips_info": {"1990": {"state_fips": "06", "county_fips": "001", "tract_fips": "402800"}, "2000": {"state_fips": "06", "county_fips": "001", "tract_fips": "402900"}, "2010": {"state_fips": "06", "county_fips": "001", "tract_fips": "402900"}}, "median_income": {"1990": 16092.81985483871, "2000": 26752.30086434574, "2010": 20312.084358409036}}, "FRMT": {"lat": 37.557355, "lon": -121.9764, "name": "Fremont", "fips_info": {"1990": {"state_fips": "06", "county_fips": "001", "tract_fips": "441901"}, "2000": {"state_fips": "06", "county_fips": "001", "tract_fips": "441901"}, "2010": {"state_fips": "06", "county_fips": "001", "tract_fips": "441924"}}, "median_income": {"1990": 86817.81358064516, "2000": 100469.34818127251, "2010": 109419.87151866576}}, "BALB": {"lat": 37.72198087, "lon": -122.4474142, "name": "Balboa Park", "fips_info": {"1990": {"state_fips": "06", "county_fips": "075", "tract_fips": "031200"}, "2000": {"state_fips": "06", "county_fips": "075", "tract_fips": "026100"}, "2010": {"state_fips": "06", "county_fips": "075", "tract_fips": "026100"}}, "median_income": {"1990": 72205.39788709677, "2000": 82295.62591836735, "2010": 77534.69857413872}}, "DELN": {"lat": 37.925655, "lon": -122.317269, "name": "El Cerrito del Norte", "fips_info": {"1990": {"state_fips": "06", "county_fips": "013", "tract_fips": "386000"}, "2000": {"state_fips": "06", "county_fips": "013", "tract_fips": "386000"}, "2010": {"state_fips": "06", "county_fips": "013", "tract_fips": "386000"}}, "median_income": {"1990": 56360.56451612903, "2000": 73410.8193277311, "2010": 51772.68631051986}}, "MCAR": {"lat": 37.828415, "lon": -122.267227, "name": "MacArthur", "fips_info": {"1990": {"state_fips": "06", "county_fips": "001", "tract_fips": "401000"}, "2000": {"state_fips": "06", "county_fips": "001", "tract_fips": "401100"}, "2010": {"state_fips": "06", "county_fips": "001", "tract_fips": "401100"}}, "median_income": {"1990": 32174.36759677419, "2000": 46191.485822328934, "2010": 44019.65079683225}}, "DUBL": {"lat": 37.701695, "lon": -121.900367, "name": "Dublin/Pleasanton", "fips_info": {"1990": {"state_fips": "06", "county_fips": "001", "tract_fips": "450722"}, "2000": {"state_fips": "06", "county_fips": "001", "tract_fips": "450722"}, "2010": {"state_fips": "06", "county_fips": "001", "tract_fips": "450743"}}, "median_income": {"1990": 94430.24716129032, "2000": 116625.32163865547, "2010": 98223.57611507572}}, "24TH": {"lat": 37.752254, "lon": -122.418466, "name": "24th St. Mission", "fips_info": {"1990": {"state_fips": "06", "county_fips": "075", "tract_fips": "020900"}, "2000": {"state_fips": "06", "county_fips": "075", "tract_fips": "020900"}, "2010": {"state_fips": "06", "county_fips": "075", "tract_fips": "020900"}}, "median_income": {"1990": 44175.41046774193, "2000": 59020.900438175275, "2010": 51477.332576665096}}, "WCRK": {"lat": 37.905628, "lon": -122.067423, "name": "Walnut Creek", "fips_info": {"1990": {"state_fips": "06", "county_fips": "013", "tract_fips": "339000"}, "2000": {"state_fips": "06", "county_fips": "013", "tract_fips": "339000"}, "2010": {"state_fips": "06", "county_fips": "013", "tract_fips": "339002"}}, "median_income": {"1990": 58956.907854838704, "2000": 70779.216242497, "2010": 85078.16323990733}}, "MLBR": {"lat": 37.599787, "lon": -122.38666, "name": "Millbrae", "fips_info": {"1990": {"state_fips": "06", "county_fips": "081", "tract_fips": "604400"}, "2000": {"state_fips": "06", "county_fips": "081", "tract_fips": "604400"}, "2010": {"state_fips": "06", "county_fips": "081", "tract_fips": "604400"}}, "median_income": {"1990": 59796.68026612903, "2000": 78397.1618367347, "2010": 64096.10368374686}}, "GLEN": {"lat": 37.732921, "lon": -122.434092, "name": "Glen Park", "fips_info": {"1990": {"state_fips": "06", "county_fips": "075", "tract_fips": "031100"}, "2000": {"state_fips": "06", "county_fips": "075", "tract_fips": "031100"}, "2010": {"state_fips": "06", "county_fips": "075", "tract_fips": "031100"}}, "median_income": {"1990": 76761.21018548387, "2000": 98142.57478391357, "2010": 110367.8267012217}}, "NBRK": {"lat": 37.87404, "lon": -122.283451, "name": "North Berkeley", "fips_info": {"1990": {"state_fips": "06", "county_fips": "001", "tract_fips": "422200"}, "2000": {"state_fips": "06", "county_fips": "001", "tract_fips": "422200"}, "2010": {"state_fips": "06", "county_fips": "001", "tract_fips": "422200"}}, "median_income": {"1990": 51049.5206532258, "2000": 59966.152130852344, "2010": 55448.3200939698}}, "ORIN": {"lat": 37.87836087, "lon": -122.1837911, "name": "Orinda", "fips_info": {"1990": {"state_fips": "06", "county_fips": "013", "tract_fips": "354001"}, "2000": {"state_fips": "06", "county_fips": "013", "tract_fips": "354001"}, "2010": {"state_fips": "06", "county_fips": "013", "tract_fips": "354001"}}, "median_income": {"1990": 138282.52372580644, "2000": 145900.15808523408, "2010": 165665.2123503172}}, "BAYF": {"lat": 37.697185, "lon": -122.126871, "name": "Bay Fair", "fips_info": {"1990": {"state_fips": "06", "county_fips": "001", "tract_fips": "433800"}, "2000": {"state_fips": "06", "county_fips": "001", "tract_fips": "433800"}, "2010": {"state_fips": "06", "county_fips": "001", "tract_fips": "433800"}}, "median_income": {"1990": 58769.03930645161, "2000": 61045.640750300125, "2010": 58548.44844012921}}, "LAKE": {"lat": 37.797484, "lon": -122.265609, "name": "Lake Merritt", "fips_info": {"1990": {"state_fips": "06", "county_fips": "001", "tract_fips": "403300"}, "2000": {"state_fips": "06", "county_fips": "001", "tract_fips": "403300"}, "2010": {"state_fips": "06", "county_fips": "001", "tract_fips": "403300"}}, "median_income": {"1990": 40816.320822580645, "2000": 34222.02651860745, "2010": 69400.52644066059}}, "ASHB": {"lat": 37.853024, "lon": -122.26978, "name": "Ashby", "fips_info": {"1990": {"state_fips": "06", "county_fips": "001", "tract_fips": "423900"}, "2000": {"state_fips": "06", "county_fips": "001", "tract_fips": "423901"}, "2010": {"state_fips": "06", "county_fips": "001", "tract_fips": "423901"}}, "median_income": {"1990": 56670.54762096774, "2000": 64512.02972388956, "2010": 62964.63827684735}}, "UCTY": {"lat": 37.591208, "lon": -122.017867, "name": "Union City", "fips_info": {"1990": {"state_fips": "06", "county_fips": "001", "tract_fips": "440309"}, "2000": {"state_fips": "06", "county_fips": "001", "tract_fips": "440309"}, "2010": {"state_fips": "06", "county_fips": "001", "tract_fips": "440335"}}, "median_income": {"1990": 81243.75375, "2000": 104120.31292917168, "2010": 150488.15669558165}}, "COLM": {"lat": 37.684638, "lon": -122.466233, "name": "Colma", "fips_info": {"1990": {"state_fips": "06", "county_fips": "081", "tract_fips": "601300"}, "2000": {"state_fips": "06", "county_fips": "081", "tract_fips": "601300"}, "2010": {"state_fips": "06", "county_fips": "081", "tract_fips": "601300"}}, "median_income": {"1990": 63245.94681451613, "2000": 65523.001578631454, "2010": 54479.733584416674}}, "RICH": {"lat": 37.936887, "lon": -122.353165, "name": "Richmond", "fips_info": {"1990": {"state_fips": "06", "county_fips": "013", "tract_fips": "377000"}, "2000": {"state_fips": "06", "county_fips": "013", "tract_fips": "375000"}, "2010": {"state_fips": "06", "county_fips": "013", "tract_fips": "375000"}}, "median_income": {"1990": 34776.34699193548, "2000": 47107.37318727491, "2010": 45229.29807445801}}, "SSAN": {"lat": 37.664174, "lon": -122.444116, "name": "South San Francisco", "fips_info": {"1990": {"state_fips": "06", "county_fips": "081", "tract_fips": "601900"}, "2000": {"state_fips": "06", "county_fips": "081", "tract_fips": "601900"}, "2010": {"state_fips": "06", "county_fips": "081", "tract_fips": "601902"}}, "median_income": {"1990": 68904.54749193547, "2000": 79887.75104441778, "2010": 76268.58661209953}}}}