{"routes": {"11": {"stop_ids": ["DALY", "BALB", "GLEN", "24TH", "16TH", "CIVC", "POWL", "MONT", "EMBR", "WOAK", "LAKE", "FTVL", "COLS", "SANL", "BAYF", "CAST", "WDUB", "DUBL"], "name": "Dublin/Pleasanton - Daly City"}, "03": {"stop_ids": ["FRMT", "UCTY", "SHAY", "HAYW", "BAYF", "SANL", "COLS", "FTVL", "LAKE", "12TH", "19TH_N", "MCAR", "ASHB", "DBRK", "NBRK", "PLZA", "DELN", "RICH"], "name": "Fremont - Richmond"}, "01": {"stop_ids": ["MLBR", "SFIA", "SBRN", "SSAN", "COLM", "DALY", "BALB", "GLEN", "24TH", "16TH", "CIVC", "POWL", "MONT", "EMBR", "WOAK", "12TH", "19TH_N", "MCAR", "ROCK", "ORIN", "LAFY", "WCRK", "PHIL", "CONC", "NCON", "PITT"], "name": "Pittsburg/Bay Point - SFIA/Millbrae"}, "07": {"stop_ids": ["MLBR", "SBRN", "SSAN", "COLM", "DALY", "BALB", "GLEN", "24TH", "16TH", "CIVC", "POWL", "MONT", "EMBR", "WOAK", "12TH", "19TH_N", "MCAR", "ASHB", "DBRK", "NBRK", "PLZA", "DELN", "RICH"], "name": "Richmond - Daly City/Millbrae"}, "05": {"stop_ids": ["FRMT", "UCTY", "SHAY", "HAYW", "BAYF", "SANL", "COLS", "FTVL", "LAKE", "WOAK", "EMBR", "MONT", "POWL", "CIVC", "16TH", "24TH", "GLEN", "BALB", "DALY"], "name": "Fremont - Daly City"}, "AirBART": {"stop_ids": ["COLS", "OAK"], "name": "SHUTTLE"}}, "agency_name": "BART", "stops": {"PHIL": {"lat": 37.928403, "lon": -122.056013, "name": "Pleasant Hill/Contra Costa Centre", "fips_info": {"2000": {"state_fips": "06", "county_fips": "013", "tract_fips": "324000"}, "2010": {"state_fips": "06", "county_fips": "013", "tract_fips": "324001"}}, "median_income": {"2000": 49002, "2010": 55929}}, "FTVL": {"lat": 37.774963, "lon": -122.224274, "name": "Fruitvale", "fips_info": {"2000": {"state_fips": "06", "county_fips": "001", "tract_fips": "406100"}, "2010": {"state_fips": "06", "county_fips": "001", "tract_fips": "406100"}}, "median_income": {"2000": 34363, "2010": 50066}}, "CIVC": {"lat": 37.779528, "lon": -122.413756, "name": "Civic Center/UN Plaza", "fips_info": {"2000": {"state_fips": "06", "county_fips": "075", "tract_fips": "017601"}, "2010": {"state_fips": "06", "county_fips": "075", "tract_fips": "017601"}}, "median_income": {"2000": 23899, "2010": 23099}}, "OAK": {"lat": 37.712811, "lon": -122.213165, "name": "Oakland Airport Terminals AirBART", "fips_info": {"2000": {"state_fips": "06", "county_fips": "001", "tract_fips": "409000"}, "2010": {"state_fips": "06", "county_fips": "001", "tract_fips": "409000"}}, "median_income": {"2000": 29904, "2010": 37526}}, "COLS": {"lat": 37.754006, "lon": -122.197273, "name": "Coliseum/Oakland Airport", "fips_info": {"2000": {"state_fips": "06", "county_fips": "001", "tract_fips": "408800"}, "2010": {"state_fips": "06", "county_fips": "001", "tract_fips": "408800"}}, "median_income": {"2000": 25903, "2010": 21917}}, "PLZA": {"lat": 37.9030588, "lon": -122.2992715, "name": "El Cerrito Plaza", "fips_info": {"2000": {"state_fips": "06", "county_fips": "013", "tract_fips": "389100"}, "2010": {"state_fips": "06", "county_fips": "013", "tract_fips": "389100"}}, "median_income": {"2000": 45774, "2010": 63750}}, "WOAK": {"lat": 37.80467476, "lon": -122.2945822, "name": "West Oakland", "fips_info": {"2000": {"state_fips": "06", "county_fips": "001", "tract_fips": "401900"}, "2010": {"state_fips": "06", "county_fips": "001", "tract_fips": "402200"}}, "median_income": {"2000": 50208, "2010": 28269}}, "CONC": {"lat": 37.973737, "lon": -122.029095, "name": "Concord", "fips_info": {"2000": {"state_fips": "06", "county_fips": "013", "tract_fips": "335000"}, "2010": {"state_fips": "06", "county_fips": "013", "tract_fips": "335000"}}, "median_income": {"2000": 64250, "2010": 74913}}, "NCON": {"lat": 38.003275, "lon": -122.024597, "name": "North Concord/Martinez", "fips_info": {"2000": {"state_fips": "06", "county_fips": "013", "tract_fips": "330000"}, "2010": {"state_fips": "06", "county_fips": "013", "tract_fips": "330000"}}, "median_income": {"2000": 58943, "2010": 77899}}, "SFIA": {"lat": 37.6159, "lon": -122.392534, "name": "San Francisco Int'l Airport", "fips_info": {"2000": {"state_fips": "06", "county_fips": "081", "tract_fips": "604300"}, "2010": {"state_fips": "06", "county_fips": "081", "tract_fips": "984300"}}, "median_income": {"2000": 0, "2010": null}}, "WDUB": {"lat": 37.699759, "lon": -121.928099, "name": "West Dublin/Pleasanton", "fips_info": {"2000": {"state_fips": "06", "county_fips": "001", "tract_fips": "450602"}, "2010": {"state_fips": "06", "county_fips": "001", "tract_fips": "450602"}}, "median_income": {"2000": 99587, "2010": 127823}}, "DALY": {"lat": 37.70612055, "lon": -122.4690807, "name": "Daly City", "fips_info": {"2000": {"state_fips": "06", "county_fips": "081", "tract_fips": "600700"}, "2010": {"state_fips": "06", "county_fips": "081", "tract_fips": "600700"}}, "median_income": {"2000": 56644, "2010": 81694}}, "EMBR": {"lat": 37.792976, "lon": -122.396742, "name": "Embarcadero", "fips_info": {"2000": {"state_fips": "06", "county_fips": "075", "tract_fips": "017602"}, "2010": {"state_fips": "06", "county_fips": "075", "tract_fips": "061500"}}, "median_income": {"2000": 56842, "2010": 112328}}, "SBRN": {"lat": 37.637753, "lon": -122.416038, "name": "San Bruno", "fips_info": {"2000": {"state_fips": "06", "county_fips": "081", "tract_fips": "604102"}, "2010": {"state_fips": "06", "county_fips": "081", "tract_fips": "604102"}}, "median_income": {"2000": 47237, "2010": 56165}}, "HAYW": {"lat": 37.670399, "lon": -122.087967, "name": "Hayward", "fips_info": {"2000": {"state_fips": "06", "county_fips": "001", "tract_fips": "435400"}, "2010": {"state_fips": "06", "county_fips": "001", "tract_fips": "435400"}}, "median_income": {"2000": 38086, "2010": 43693}}, "LAFY": {"lat": 37.893394, "lon": -122.123801, "name": "Lafayette", "fips_info": {"2000": {"state_fips": "06", "county_fips": "013", "tract_fips": "348000"}, "2010": {"state_fips": "06", "county_fips": "013", "tract_fips": "348000"}}, "median_income": {"2000": 130412, "2010": 153488}}, "DBRK": {"lat": 37.869867, "lon": -122.268045, "name": "Downtown Berkeley", "fips_info": {"2000": {"state_fips": "06", "county_fips": "001", "tract_fips": "422900"}, "2010": {"state_fips": "06", "county_fips": "001", "tract_fips": "422900"}}, "median_income": {"2000": 17257, "2010": 24263}}, "12TH": {"lat": 37.803664, "lon": -122.271604, "name": "12th St. Oakland City Center", "fips_info": {"2000": {"state_fips": "06", "county_fips": "001", "tract_fips": "403000"}, "2010": {"state_fips": "06", "county_fips": "001", "tract_fips": "403000"}}, "median_income": {"2000": 13107, "2010": 17349}}, "SHAY": {"lat": 37.63479954, "lon": -122.0575506, "name": "South Hayward", "fips_info": {"2000": {"state_fips": "06", "county_fips": "001", "tract_fips": "435101"}, "2010": {"state_fips": "06", "county_fips": "001", "tract_fips": "435104"}}, "median_income": {"2000": 69792, "2010": 53923}}, "PITT": {"lat": 38.018914, "lon": -121.945154, "name": "Pittsburg/Bay Point", "fips_info": {"2000": {"state_fips": "06", "county_fips": "013", "tract_fips": "355200"}, "2010": {"state_fips": "06", "county_fips": "013", "tract_fips": "355200"}}, "median_income": {"2000": 75124, "2010": 78295}}, "CAST": {"lat": 37.690754, "lon": -122.075567, "name": "Castro Valley", "fips_info": {"2000": {"state_fips": "06", "county_fips": "001", "tract_fips": "431200"}, "2010": {"state_fips": "06", "county_fips": "001", "tract_fips": "431200"}}, "median_income": {"2000": 51781, "2010": 55795}}, "MONT": {"lat": 37.789256, "lon": -122.401407, "name": "Montgomery St.", "fips_info": {"2000": {"state_fips": "06", "county_fips": "075", "tract_fips": "017602"}, "2010": {"state_fips": "06", "county_fips": "075", "tract_fips": "061500"}}, "median_income": {"2000": 56842, "2010": 112328}}, "POWL": {"lat": 37.784991, "lon": -122.406857, "name": "Powell St.", "fips_info": {"2000": {"state_fips": "06", "county_fips": "075", "tract_fips": "017601"}, "2010": {"state_fips": "06", "county_fips": "075", "tract_fips": "017601"}}, "median_income": {"2000": 23899, "2010": 23099}}, "ROCK": {"lat": 37.844601, "lon": -122.251793, "name": "Rockridge", "fips_info": {"2000": {"state_fips": "06", "county_fips": "001", "tract_fips": "400300"}, "2010": {"state_fips": "06", "county_fips": "001", "tract_fips": "400300"}}, "median_income": {"2000": 58663, "2010": 52314}}, "SANL": {"lat": 37.72261921, "lon": -122.1613112, "name": "San Leandro", "fips_info": {"2000": {"state_fips": "06", "county_fips": "001", "tract_fips": "432600"}, "2010": {"state_fips": "06", "county_fips": "001", "tract_fips": "432600"}}, "median_income": {"2000": 40654, "2010": 45805}}, "16TH": {"lat": 37.765062, "lon": -122.419694, "name": "16th St. Mission", "fips_info": {"2000": {"state_fips": "06", "county_fips": "075", "tract_fips": "020100"}, "2010": {"state_fips": "06", "county_fips": "075", "tract_fips": "020100"}}, "median_income": {"2000": 26228, "2010": 38579}}, "19TH_N": {"lat": 37.80787, "lon": -122.269029, "name": "19th St. Oakland", "fips_info": {"2000": {"state_fips": "06", "county_fips": "001", "tract_fips": "402900"}, "2010": {"state_fips": "06", "county_fips": "001", "tract_fips": "402900"}}, "median_income": {"2000": 19132, "2010": 18706}}, "FRMT": {"lat": 37.557355, "lon": -121.9764, "name": "Fremont", "fips_info": {"2000": {"state_fips": "06", "county_fips": "001", "tract_fips": "441901"}, "2010": {"state_fips": "06", "county_fips": "001", "tract_fips": "441924"}}, "median_income": {"2000": 71851, "2010": 100768}}, "BALB": {"lat": 37.72198087, "lon": -122.4474142, "name": "Balboa Park", "fips_info": {"2000": {"state_fips": "06", "county_fips": "075", "tract_fips": "026100"}, "2010": {"state_fips": "06", "county_fips": "075", "tract_fips": "026100"}}, "median_income": {"2000": 58854, "2010": 71404}}, "DELN": {"lat": 37.925655, "lon": -122.317269, "name": "El Cerrito del Norte", "fips_info": {"2000": {"state_fips": "06", "county_fips": "013", "tract_fips": "386000"}, "2010": {"state_fips": "06", "county_fips": "013", "tract_fips": "386000"}}, "median_income": {"2000": 52500, "2010": 47679}}, "MCAR": {"lat": 37.828415, "lon": -122.267227, "name": "MacArthur", "fips_info": {"2000": {"state_fips": "06", "county_fips": "001", "tract_fips": "401100"}, "2010": {"state_fips": "06", "county_fips": "001", "tract_fips": "401100"}}, "median_income": {"2000": 33034, "2010": 40539}}, "DUBL": {"lat": 37.701695, "lon": -121.900367, "name": "Dublin/Pleasanton", "fips_info": {"2000": {"state_fips": "06", "county_fips": "001", "tract_fips": "450722"}, "2010": {"state_fips": "06", "county_fips": "001", "tract_fips": "450743"}}, "median_income": {"2000": 83405, "2010": 90457}}, "24TH": {"lat": 37.752254, "lon": -122.418466, "name": "24th St. Mission", "fips_info": {"2000": {"state_fips": "06", "county_fips": "075", "tract_fips": "020900"}, "2010": {"state_fips": "06", "county_fips": "075", "tract_fips": "020900"}}, "median_income": {"2000": 42209, "2010": 47407}}, "WCRK": {"lat": 37.905628, "lon": -122.067423, "name": "Walnut Creek", "fips_info": {"2000": {"state_fips": "06", "county_fips": "013", "tract_fips": "339000"}, "2010": {"state_fips": "06", "county_fips": "013", "tract_fips": "339002"}}, "median_income": {"2000": 50618, "2010": 78351}}, "MLBR": {"lat": 37.599787, "lon": -122.38666, "name": "Millbrae", "fips_info": {"2000": {"state_fips": "06", "county_fips": "081", "tract_fips": "604400"}, "2010": {"state_fips": "06", "county_fips": "081", "tract_fips": "604400"}}, "median_income": {"2000": 56066, "2010": 59028}}, "GLEN": {"lat": 37.732921, "lon": -122.434092, "name": "Glen Park", "fips_info": {"2000": {"state_fips": "06", "county_fips": "075", "tract_fips": "031100"}, "2010": {"state_fips": "06", "county_fips": "075", "tract_fips": "031100"}}, "median_income": {"2000": 70187, "2010": 101641}}, "NBRK": {"lat": 37.87404, "lon": -122.283451, "name": "North Berkeley", "fips_info": {"2000": {"state_fips": "06", "county_fips": "001", "tract_fips": "422200"}, "2010": {"state_fips": "06", "county_fips": "001", "tract_fips": "422200"}}, "median_income": {"2000": 42885, "2010": 51064}}, "ORIN": {"lat": 37.87836087, "lon": -122.1837911, "name": "Orinda", "fips_info": {"2000": {"state_fips": "06", "county_fips": "013", "tract_fips": "354001"}, "2010": {"state_fips": "06", "county_fips": "013", "tract_fips": "354001"}}, "median_income": {"2000": 104341, "2010": 152566}}, "BAYF": {"lat": 37.697185, "lon": -122.126871, "name": "Bay Fair", "fips_info": {"2000": {"state_fips": "06", "county_fips": "001", "tract_fips": "433800"}, "2010": {"state_fips": "06", "county_fips": "001", "tract_fips": "433800"}}, "median_income": {"2000": 43657, "2010": 53919}}, "LAKE": {"lat": 37.797484, "lon": -122.265609, "name": "Lake Merritt", "fips_info": {"2000": {"state_fips": "06", "county_fips": "001", "tract_fips": "403300"}, "2010": {"state_fips": "06", "county_fips": "001", "tract_fips": "403300"}}, "median_income": {"2000": 24474, "2010": 63913}}, "ASHB": {"lat": 37.853024, "lon": -122.26978, "name": "Ashby", "fips_info": {"2000": {"state_fips": "06", "county_fips": "001", "tract_fips": "423901"}, "2010": {"state_fips": "06", "county_fips": "001", "tract_fips": "423901"}}, "median_income": {"2000": 46136, "2010": 57986}}, "UCTY": {"lat": 37.591208, "lon": -122.017867, "name": "Union City", "fips_info": {"2000": {"state_fips": "06", "county_fips": "001", "tract_fips": "440309"}, "2010": {"state_fips": "06", "county_fips": "001", "tract_fips": "440335"}}, "median_income": {"2000": 74462, "2010": 138589}}, "COLM": {"lat": 37.684638, "lon": -122.466233, "name": "Colma", "fips_info": {"2000": {"state_fips": "06", "county_fips": "081", "tract_fips": "601300"}, "2010": {"state_fips": "06", "county_fips": "081", "tract_fips": "601300"}}, "median_income": {"2000": 46859, "2010": 50172}}, "RICH": {"lat": 37.936887, "lon": -122.353165, "name": "Richmond", "fips_info": {"2000": {"state_fips": "06", "county_fips": "013", "tract_fips": "375000"}, "2010": {"state_fips": "06", "county_fips": "013", "tract_fips": "375000"}}, "median_income": {"2000": 33689, "2010": 41653}}, "SSAN": {"lat": 37.664174, "lon": -122.444116, "name": "South San Francisco", "fips_info": {"2000": {"state_fips": "06", "county_fips": "081", "tract_fips": "601900"}, "2010": {"state_fips": "06", "county_fips": "081", "tract_fips": "601902"}}, "median_income": {"2000": 57132, "2010": 70238}}}}